,title,address.label,distance,access,position.lat,position.lng,address.postalCode,id
0,KBJ Apartment,"KBJ Apartment, 75 Raja Street, Subramanyapur, Ponmalaipatti, Tiruchirappalli 620020, India",374,"[{'lat': 10.78904, 'lng': 78.7016}]",10.78907,78.7016,620020,here:pds:place:356cfbc4-153d688481eed6ae544bc87629ec78e8
1,Mangari Apartment,"Mangari Apartment, Paneer Selvam Street, Subramanyapur, Ponmalaipatti, Tiruchirappalli 620020, India",592,"[{'lat': 10.78619, 'lng': 78.70171}]",10.78617,78.70155,620020,here:pds:place:356jx7ps-bc9c608fad210276539ddf7c96311753
2,Service Apartment,"Service Apartment, Kallar Street, Cyclone Labour Colony Quarters, Khajamalai, Tiruchirappalli 620020, India",1591,"[{'lat': 10.79211, 'lng': 78.69022}]",10.79214,78.69023,620020,here:pds:place:356t9zvq-1c07f0440e417a73b0b86522894c4dd2
3,Mountzien Apartment,"Mountzien Apartment, Bharathiyar Street, Subramanyapur, Ponmalaipatti, Tiruchirappalli 620020, India",778,"[{'lat': 10.78625, 'lng': 78.69881}]",10.7863,78.699,620020,here:pds:place:356t9zvq-5bb6deb535552d3a67fa3a7f5649de9b
4,Orchid Apartment,"Orchid Apartment, Illupur Road, Kallukuzzhi-Ramakrishna Nagar, Khajamalai, Tiruchirappalli 620020, India",1378,"[{'lat': 10.79412, 'lng': 78.69254}]",10.79421,78.69266,620020,here:pds:place:356jx7ps-eefa75fcdfc30b62c485fc8165f6ca6e
5,Ark Sangai (Ark Sangai Apartment),"Ark Sangai, Sangiliyandapuram Main Road, Sangiliyandapuram, Palakarai, Tiruchirappalli 620008, India",996,"[{'lat': 10.79943, 'lng': 78.70367}]",10.79938,78.70354,620008,here:pds:place:356t9zvq-387e0549941cd13acf400f078989f5ae
6,Fatima Apartment,"Fatima Apartment, Mudukkupatty Road, Iqbal Colony, Ponmalaipatti, Tiruchirappalli 620020, India",1058,"[{'lat': 10.79305, 'lng': 78.69537}]",10.79305,78.69537,620020,here:pds:place:356t9zvq-91ac871baee54943b29c6dd6c7bb6821
7,Manghalam Estates (Mangalam Apartment),"Manghalam Estates, Cantonment, Tiruchirappalli 620001, India",2539,"[{'lat': 10.80306, 'lng': 78.68525}]",10.80315,78.68535,620001,here:pds:place:356jx7ps-26efeeb1ed8701e7d8fc38c37e49d19e
8,Ark Apartment,"Ark Apartment, Quaid E Millath Street, Kaja Nagar Slum Area, Khajamalai, Tiruchirappalli 620020, India",1842,"[{'lat': 10.78292, 'lng': 78.68966}]",10.78298,78.68967,620020,here:pds:place:356t9zvq-b1d6a6635b0415d7e4191f0c7248e31b
9,Royal (Royal Apartment),"Royal, Anna Teral Street, Varaganeri Bazar, Devathanam, Tiruchirappalli 620002, India",2711,"[{'lat': 10.81459, 'lng': 78.70154}]",10.81466,78.7014,620002,here:pds:place:356jx7ps-c1a4db9980b4020f7f48e038f466327a
